{
"type": "FeatureCollection",
"name": "réseaux-interurbain_Manche",
"crs": { "type": "name", "properties": { "name": "urn:ogc:def:crs:OGC:1.3:CRS84" } },
"features": [
{ "type": "Feature", "properties": { "code": "5016718A", "description": "", "id": "FR:50546:ZE:1076294:ATOUMOD040", "name": "BOURGVALLEES - ST-SAMSON-DE-BONFOSSE_Plc Général de Gaulle", "wheelchair_boarding": "unknown" }, "geometry": { "type": "Point", "coordinates": [ -1.127851, 49.049188 ] } },
{ "type": "Feature", "properties": { "code": "5015165A", "description": "", "id": "FR:50359:ZE:1075472:ATOUMOD040", "name": "MORTAIN-BOCAGE - MORTAIN_Office de Tourisme", "wheelchair_boarding": "unknown" }, "geometry": { "type": "Point", "coordinates": [ -0.942476, 48.648773 ] } },
{ "type": "Feature", "properties": { "code": "5015151A", "description": "", "id": "FR:50044:ZE:1075454:ATOUMOD040", "name": "BELVAL - Gare", "wheelchair_boarding": "unknown" }, "geometry": { "type": "Point", "coordinates": [ -1.348654, 49.073692 ] } },
{ "type": "Feature", "properties": { "code": "5016855A", "description": "", "id": "FR:50502:ZE:1076364:ATOUMOD040", "name": "SAINT-LO - Hôpital", "wheelchair_boarding": "unknown" }, "geometry": { "type": "Point", "coordinates": [ -1.109343, 49.106107 ] } },
{ "type": "Feature", "properties": { "code": "5015912B", "description": "", "id": "FR:50147:ZE:1178298:ATOUMOD040", "name": "COUTANCES - La Louverie (ZI de la Mare)", "wheelchair_boarding": "unknown" }, "geometry": { "type": "Point", "coordinates": [ -1.432223, 49.065578 ] } },
{ "type": "Feature", "properties": { "code": "5015151B", "description": "", "id": "FR:50094:ZE:1178292:ATOUMOD040", "name": "BELVAL - Gare", "wheelchair_boarding": "unknown" }, "geometry": { "type": "Point", "coordinates": [ -1.349223, 49.073798 ] } },
{ "type": "Feature", "properties": { "code": "5015097A", "description": "", "id": "FR:50025:ZE:1075420:ATOUMOD040", "name": "AVRANCHES - Gare SNCF", "wheelchair_boarding": "unknown" }, "geometry": { "type": "Point", "coordinates": [ -1.3695783, 48.6900177 ] } },
{ "type": "Feature", "properties": { "code": "5015940B", "description": "", "id": "FR:50532:ZE:1178300:ATOUMOD040", "name": "SAINT-PAIR-SUR-MER - Le Pont-Bleu", "wheelchair_boarding": "unknown" }, "geometry": { "type": "Point", "coordinates": [ -1.564305, 48.790381 ] } },
{ "type": "Feature", "properties": { "code": "5017226A", "description": "", "id": "FR:50199:ZE:1076890:ATOUMOD040", "name": "GENETS - La Poste", "wheelchair_boarding": "unknown" }, "geometry": { "type": "Point", "coordinates": [ -1.4747053, 48.6845501 ] } },
{ "type": "Feature", "properties": { "code": "5015085A", "description": "", "id": "FR:50582:ZE:1075408:ATOUMOD040", "name": "SOURDEVAL - SOURDEVAL_Rue du Capitaine Duval", "wheelchair_boarding": "unknown" }, "geometry": { "type": "Point", "coordinates": [ -0.920716, 48.724603 ] } },
{ "type": "Feature", "properties": { "code": "5017233A", "description": "", "id": "FR:50363:ZE:1076896:ATOUMOD040", "name": "MOYON VILLAGES - MOYON_Carrefour Paris", "wheelchair_boarding": "unknown" }, "geometry": { "type": "Point", "coordinates": [ -1.154518, 48.997408 ] } },
{ "type": "Feature", "properties": { "code": "5015979A", "description": "", "id": "FR:50496:ZE:1075952:ATOUMOD040", "name": "SAINT-JEAN-LE-THOMAS - Jardin public", "wheelchair_boarding": "unknown" }, "geometry": { "type": "Point", "coordinates": [ -1.518562, 48.730005 ] } },
{ "type": "Feature", "properties": { "code": "5015603A", "description": "", "id": "FR:50137:ZE:1075734:ATOUMOD040", "name": "LA COLOMBE - Le Bignon", "wheelchair_boarding": "unknown" }, "geometry": { "type": "Point", "coordinates": [ -1.201119, 48.878139 ] } },
{ "type": "Feature", "properties": { "code": "5015126B", "description": "", "id": "FR:50483:ZE:1178288:ATOUMOD040", "name": "SAINT-GILLES - Église", "wheelchair_boarding": "unknown" }, "geometry": { "type": "Point", "coordinates": [ -1.175106, 49.104624 ] } },
{ "type": "Feature", "properties": { "code": "5015531B", "description": "", "id": "FR:50565:ZE:1178280:ATOUMOD040", "name": "SARTILLY-BAIE-BOCAGE - SARTILLY_Rue Grande Rue", "wheelchair_boarding": "unknown" }, "geometry": { "type": "Point", "coordinates": [ -1.456497, 48.752437 ] } },
{ "type": "Feature", "properties": { "code": "5015994B", "description": "", "id": "FR:50027:ZE:1178291:ATOUMOD040", "name": "BACILLY - Le Fougeray", "wheelchair_boarding": "unknown" }, "geometry": { "type": "Point", "coordinates": [ -1.441014, 48.688245 ] } },
{ "type": "Feature", "properties": { "code": "5015041B", "description": "", "id": "FR:50099:ZE:1158285:ATOUMOD040", "name": "CARENTAN-LES-MARAIS - MONTMARTIN-EN-GRAIGNES_Le Rata", "wheelchair_boarding": "unknown" }, "geometry": { "type": "Point", "coordinates": [ -1.1609486, 49.2716331 ] } },
{ "type": "Feature", "properties": { "code": "5015027A", "description": "", "id": "FR:50341:ZE:1075380:ATOUMOD040", "name": "MONTEBOURG - Plc Albert Pellerin", "wheelchair_boarding": "unknown" }, "geometry": { "type": "Point", "coordinates": [ -1.3810681, 49.487684 ] } },
{ "type": "Feature", "properties": { "code": "5016142A", "description": "", "id": "FR:50236:ZE:1076000:ATOUMOD040", "name": "LA HAYE - LA HAYE-DU-PUITS_Plc Flandres Dunkerque", "wheelchair_boarding": "unknown" }, "geometry": { "type": "Point", "coordinates": [ -1.541754, 49.284133 ] } },
{ "type": "Feature", "properties": { "code": "5015999A", "description": "", "id": "FR:50502:ZE:1075434:ATOUMOD040", "name": "SAINT-LO - Gare SNCF", "wheelchair_boarding": "unknown" }, "geometry": { "type": "Point", "coordinates": [ -1.0990834, 49.1172046 ] } },
{ "type": "Feature", "properties": { "code": "5015940A", "description": "", "id": "FR:50532:ZE:1075908:ATOUMOD040", "name": "SAINT-PAIR-SUR-MER - Le Pont-Bleu", "wheelchair_boarding": "unknown" }, "geometry": { "type": "Point", "coordinates": [ -1.56453, 48.790511 ] } },
{ "type": "Feature", "properties": { "code": "5013835A", "description": "", "id": "FR:50218:ZE:1075206:ATOUMOD040", "name": "GRANVILLE - Lycée Morandière LR", "wheelchair_boarding": "unknown" }, "geometry": { "type": "Point", "coordinates": [ -1.575638, 48.830403 ] } },
{ "type": "Feature", "properties": { "code": "5017226B", "description": "", "id": "FR:50199:ZE:1178314:ATOUMOD040", "name": "GENETS - La Poste", "wheelchair_boarding": "unknown" }, "geometry": { "type": "Point", "coordinates": [ -1.4745632, 48.68461 ] } },
{ "type": "Feature", "properties": { "code": "5015037B", "description": "", "id": "FR:50099:ZE:1178297:ATOUMOD040", "name": "CARENTAN-LES-MARAIS - CARENTAN_Gare SNCF", "wheelchair_boarding": "unknown" }, "geometry": { "type": "Point", "coordinates": [ -1.2444605, 49.3023316 ] } },
{ "type": "Feature", "properties": { "code": "5015972A", "description": "", "id": "FR:50102:ZE:1075942:ATOUMOD040", "name": "CAROLLES - Salle des fêtes", "wheelchair_boarding": "unknown" }, "geometry": { "type": "Point", "coordinates": [ -1.561722, 48.751238 ] } },
{ "type": "Feature", "properties": { "code": "5016866B", "description": "", "id": "FR:50419:ZE:1178289:ATOUMOD040", "name": "QUETTREVILLE-SUR-SIENNE - QUETTREVILLE-SUR-SIENNE_Mairie", "wheelchair_boarding": "unknown" }, "geometry": { "type": "Point", "coordinates": [ -1.469247, 48.968554 ] } },
{ "type": "Feature", "properties": { "code": "5016004A", "description": "", "id": "FR:50288:ZE:1075966:ATOUMOD040", "name": "MARCEY-LES-GREVES - Pont-Gilbert", "wheelchair_boarding": "unknown" }, "geometry": { "type": "Point", "coordinates": [ -1.375129, 48.692867 ] } },
{ "type": "Feature", "properties": { "code": "5015167A", "description": "", "id": "FR:50371:ZE:1075476:ATOUMOD040", "name": "LE NEUFBOURG - Le Bourg", "wheelchair_boarding": "unknown" }, "geometry": { "type": "Point", "coordinates": [ -0.947049, 48.659481 ] } },
{ "type": "Feature", "properties": { "code": "5015137A", "description": "", "id": "FR:50147:ZE:1075444:ATOUMOD040", "name": "COUTANCES - Place Wood", "wheelchair_boarding": "unknown" }, "geometry": { "type": "Point", "coordinates": [ -1.444412, 49.051488 ] } },
{ "type": "Feature", "properties": { "code": "5015936A", "description": "", "id": "FR:50532:ZE:1075900:ATOUMOD040", "name": "SAINT-PAIR-SUR-MER - Beausoleil", "wheelchair_boarding": "unknown" }, "geometry": { "type": "Point", "coordinates": [ -1.567734, 48.803395 ] } },
{ "type": "Feature", "properties": { "code": "5015912A", "description": "", "id": "FR:50147:ZE:1075884:ATOUMOD040", "name": "COUTANCES - La Louverie (ZI de la Mare)", "wheelchair_boarding": "unknown" }, "geometry": { "type": "Point", "coordinates": [ -1.43201, 49.06564 ] } },
{ "type": "Feature", "properties": { "code": "5015197A", "description": "", "id": "FR:50025:ZE:1075500:ATOUMOD040", "name": "AVRANCHES - AVRANCHES_Jardin des Plantes", "wheelchair_boarding": "unknown" }, "geometry": { "type": "Point", "coordinates": [ -1.3639274, 48.6845143 ] } },
{ "type": "Feature", "properties": { "code": "5015168A", "description": "", "id": "FR:50371:ZE:1075478:ATOUMOD040", "name": "LE NEUFBOURG - Le Bourg", "wheelchair_boarding": "unknown" }, "geometry": { "type": "Point", "coordinates": [ -0.9471336, 48.6592421 ] } },
{ "type": "Feature", "properties": { "code": "5015592A", "description": "", "id": "FR:50639:ZE:1075728:ATOUMOD040", "name": "VILLEDIEU-LES-POELES-ROUFFIGNY - VILLEDIEU-LES-POELES_Gare SNCF", "wheelchair_boarding": "unknown" }, "geometry": { "type": "Point", "coordinates": [ -1.225684, 48.833988 ] } },
{ "type": "Feature", "properties": { "code": "5015531A", "description": "", "id": "FR:50565:ZE:1075696:ATOUMOD040", "name": "SARTILLY-BAIE-BOCAGE - SARTILLY_Rue Grande Rue", "wheelchair_boarding": "unknown" }, "geometry": { "type": "Point", "coordinates": [ -1.456544, 48.75239 ] } },
{ "type": "Feature", "properties": { "code": "5015994A", "description": "", "id": "FR:50027:ZE:1075954:ATOUMOD040", "name": "BACILLY - Le Fougeray", "wheelchair_boarding": "unknown" }, "geometry": { "type": "Point", "coordinates": [ -1.440214, 48.688298 ] } },
{ "type": "Feature", "properties": { "code": "5013582A", "description": "", "id": "FR:50359:ZE:1074876:ATOUMOD040", "name": "MORTAIN-BOCAGE - MORTAIN_Collège Robert de Mortain", "wheelchair_boarding": "unknown" }, "geometry": { "type": "Point", "coordinates": [ -0.937662, 48.643211 ] } },
{ "type": "Feature", "properties": { "code": "5015929A", "description": "", "id": "FR:50532:ZE:1075894:ATOUMOD040", "name": "SAINT-PAIR-SUR-MER - La Porte des Iles", "wheelchair_boarding": "unknown" }, "geometry": { "type": "Point", "coordinates": [ -1.569747, 48.814252 ] } },
{ "type": "Feature", "properties": { "code": "5015195B", "description": "", "id": "FR:50025:ZE:1178285:ATOUMOD040", "name": "AVRANCHES - AVRANCHES_Bld du Luxembourg", "wheelchair_boarding": "unknown" }, "geometry": { "type": "Point", "coordinates": [ -1.355311, 48.679522 ] } },
{ "type": "Feature", "properties": { "code": "5015195A", "description": "", "id": "FR:50025:ZE:1075496:ATOUMOD040", "name": "AVRANCHES - AVRANCHES_Bld du Luxembourg", "wheelchair_boarding": "unknown" }, "geometry": { "type": "Point", "coordinates": [ -1.355171, 48.67975 ] } },
{ "type": "Feature", "properties": { "code": "5015025B", "description": "", "id": "FR:50615:ZE:1178274:ATOUMOD040", "name": "VALOGNES - Hôpital", "wheelchair_boarding": "unknown" }, "geometry": { "type": "Point", "coordinates": [ -1.463821, 49.503631 ] } },
{ "type": "Feature", "properties": { "code": "5015932A", "description": "", "id": "FR:50532:ZE:1075896:ATOUMOD040", "name": "SAINT-PAIR-SUR-MER - Ancienne gare", "wheelchair_boarding": "unknown" }, "geometry": { "type": "Point", "coordinates": [ -1.565727, 48.813073 ] } },
{ "type": "Feature", "properties": { "code": "5015812B", "description": "", "id": "FR:50165:ZE:1168827:ATOUMOD040", "name": "DONVILLE-LES-BAINS - Mairie", "wheelchair_boarding": "unknown" }, "geometry": { "type": "Point", "coordinates": [ -1.579994, 48.847019 ] } },
{ "type": "Feature", "properties": { "code": "5012451B", "description": "", "id": "FR:50639:ZE:1178275:ATOUMOD040", "name": "VILLEDIEU-LES-POELES-ROUFFIGNY - VILLEDIEU-LES-POELES_Saultchevreuil", "wheelchair_boarding": "unknown" }, "geometry": { "type": "Point", "coordinates": [ -1.234149, 48.827882 ] } },
{ "type": "Feature", "properties": { "code": "5016198A", "description": "", "id": "FR:50393:ZE:1076014:ATOUMOD040", "name": "PERCY-EN-NORMANDIE - PERCY_Plc du Champ de foire", "wheelchair_boarding": "unknown" }, "geometry": { "type": "Point", "coordinates": [ -1.191073, 48.915732 ] } },
{ "type": "Feature", "properties": { "code": "5016689B", "description": "", "id": "FR:50167:ZE:1178306:ATOUMOD040", "name": "DRAGEY-RONTHON - Le Lavoir", "wheelchair_boarding": "unknown" }, "geometry": { "type": "Point", "coordinates": [ -1.498258, 48.712294 ] } },
{ "type": "Feature", "properties": { "code": "5015141A", "description": "", "id": "FR:50147:ZE:1075448:ATOUMOD040", "name": "COUTANCES - Gare SNCF", "wheelchair_boarding": "unknown" }, "geometry": { "type": "Point", "coordinates": [ -1.441779, 49.043261 ] } },
{ "type": "Feature", "properties": { "code": "5015495B", "description": "", "id": "FR:50408:ZE:1178290:ATOUMOD040", "name": "PONTAUBAULT - Mairie", "wheelchair_boarding": "unknown" }, "geometry": { "type": "Point", "coordinates": [ -1.350929, 48.629153 ] } },
{ "type": "Feature", "properties": { "code": "5015604B", "description": "", "id": "FR:50637:ZE:1178276:ATOUMOD040", "name": "VILLEBAUDON - Le Bourg", "wheelchair_boarding": "unknown" }, "geometry": { "type": "Point", "coordinates": [ -1.166561, 48.959516 ] } },
{ "type": "Feature", "properties": { "code": "5015996B", "description": "", "id": "FR:50612:ZE:1178272:ATOUMOD040", "name": "VAINS - Mairie", "wheelchair_boarding": "unknown" }, "geometry": { "type": "Point", "coordinates": [ -1.413033, 48.681759 ] } },
{ "type": "Feature", "properties": { "code": "5015618B", "description": "", "id": "FR:50535:ZE:1178293:ATOUMOD040", "name": "LE PARC - STE-PIENCE_Château du Parc", "wheelchair_boarding": "unknown" }, "geometry": { "type": "Point", "coordinates": [ -1.291921, 48.759006 ] } },
{ "type": "Feature", "properties": { "code": "5013769A", "description": "", "id": "FR:50236:ZE:1075124:ATOUMOD040", "name": "LA HAYE - LA HAYE-DU-PUITS_Rue de Verdun", "wheelchair_boarding": "unknown" }, "geometry": { "type": "Point", "coordinates": [ -1.545317, 49.294975 ] } },
{ "type": "Feature", "properties": { "code": "5015199B", "description": "", "id": "FR:50025:ZE:1178278:ATOUMOD040", "name": "AVRANCHES - AVRANCHES_Hôpital", "wheelchair_boarding": "unknown" }, "geometry": { "type": "Point", "coordinates": [ -1.350784, 48.692872 ] } },
{ "type": "Feature", "properties": { "code": "5017233B", "description": "", "id": "FR:50363:ZE:1178283:ATOUMOD040", "name": "MOYON VILLAGES - MOYON_Carrefour Paris", "wheelchair_boarding": "unknown" }, "geometry": { "type": "Point", "coordinates": [ -1.154479, 48.997977 ] } },
{ "type": "Feature", "properties": { "code": "5016689A", "description": "", "id": "FR:50167:ZE:1076278:ATOUMOD040", "name": "DRAGEY-RONTHON - Le Lavoir", "wheelchair_boarding": "unknown" }, "geometry": { "type": "Point", "coordinates": [ -1.497471, 48.712086 ] } },
{ "type": "Feature", "properties": { "code": "5016194B", "description": "", "id": "FR:50267:ZE:1178312:ATOUMOD040", "name": "LESSAY - LESSAY_Rond-point de la Lande", "wheelchair_boarding": "unknown" }, "geometry": { "type": "Point", "coordinates": [ -1.529074, 49.213111 ] } },
{ "type": "Feature", "properties": { "code": "5015128B", "description": "", "id": "FR:50292:ZE:1178310:ATOUMOD040", "name": "MARIGNY-LE-LOZON - MARIGNY_Maison de retraite", "wheelchair_boarding": "unknown" }, "geometry": { "type": "Point", "coordinates": [ -1.240351, 49.098673 ] } },
{ "type": "Feature", "properties": { "code": "5016868A", "description": "", "id": "FR:50639:ZE:1076380:ATOUMOD040", "name": "VILLEDIEU-LES-POELES-ROUFFIGNY - ROUFFIGNY_Salle des Fêtes", "wheelchair_boarding": "unknown" }, "geometry": { "type": "Point", "coordinates": [ -1.253911, 48.803363 ] } },
{ "type": "Feature", "properties": { "code": "5015770B", "description": "", "id": "FR:50267:ZE:1178296:ATOUMOD040", "name": "LESSAY - LESSAY_Abbatiale", "wheelchair_boarding": "unknown" }, "geometry": { "type": "Point", "coordinates": [ -1.531566, 49.220341 ] } },
{ "type": "Feature", "properties": { "code": "5015165B", "description": "", "id": "FR:50359:ZE:1178295:ATOUMOD040", "name": "MORTAIN-BOCAGE - MORTAIN_Office de Tourisme", "wheelchair_boarding": "unknown" }, "geometry": { "type": "Point", "coordinates": [ -0.942184, 48.648899 ] } },
{ "type": "Feature", "properties": { "code": "5015105A", "description": "", "id": "FR:50484:ZE:1075430:ATOUMOD040", "name": "SAINT-HILAIRE-DU-HARCOUET - ST-HILAIRE-DU-HARCOUET_Mairie", "wheelchair_boarding": "unknown" }, "geometry": { "type": "Point", "coordinates": [ -1.091497, 48.576941 ] } },
{ "type": "Feature", "properties": { "code": "5015964A", "description": "", "id": "FR:50066:ZE:1075936:ATOUMOD040", "name": "JULLOUVILLE - Office de Tourisme", "wheelchair_boarding": "unknown" }, "geometry": { "type": "Point", "coordinates": [ -1.567328, 48.774556 ] } },
{ "type": "Feature", "properties": { "code": "5013662A", "description": "", "id": "FR:50146:ZE:1074982:ATOUMOD040", "name": "COURTILS - École", "wheelchair_boarding": "unknown" }, "geometry": { "type": "Point", "coordinates": [ -1.409598, 48.62836 ] } },
{ "type": "Feature", "properties": { "code": "5016914A", "description": "", "id": "FR:50484:ZE:1076436:ATOUMOD040", "name": "SAINT-HILAIRE-DU-HARCOUET - VIREY_Ecole", "wheelchair_boarding": "unknown" }, "geometry": { "type": "Point", "coordinates": [ -1.131926, 48.585434 ] } },
{ "type": "Feature", "properties": { "code": "5015905A", "description": "", "id": "FR:50551:ZE:1075882:ATOUMOD040", "name": "SAINT-SAUVEUR-LE-VICOMTE - Mairie", "wheelchair_boarding": "unknown" }, "geometry": { "type": "Point", "coordinates": [ -1.529421, 49.386989 ] } },
{ "type": "Feature", "properties": { "code": "5017222A", "description": "", "id": "FR:50218:ZE:1076884:ATOUMOD040", "name": "GRANVILLE - Maison de repos", "wheelchair_boarding": "unknown" }, "geometry": { "type": "Point", "coordinates": [ -1.570178, 48.831028 ] } },
{ "type": "Feature", "properties": { "code": "5015770A", "description": "", "id": "FR:50267:ZE:1075786:ATOUMOD040", "name": "LESSAY - LESSAY_Abbatiale", "wheelchair_boarding": "unknown" }, "geometry": { "type": "Point", "coordinates": [ -1.531784, 49.22025 ] } },
{ "type": "Feature", "properties": { "code": "5015664A", "description": "", "id": "FR:50550:ZE:1075764:ATOUMOD040", "name": "SAINT-SAUVEUR-VILLAGES - ST-SAUVEUR-LENDELIN_Mairie", "wheelchair_boarding": "unknown" }, "geometry": { "type": "Point", "coordinates": [ -1.411927, 49.13085 ] } },
{ "type": "Feature", "properties": { "code": "5015153A", "description": "", "id": "FR:50484:ZE:1075458:ATOUMOD040", "name": "SAINT-HILAIRE-DU-HARCOUET - ST-HILAIRE-DU-HARCOUET_Parking des Peupliers", "wheelchair_boarding": "unknown" }, "geometry": { "type": "Point", "coordinates": [ -1.096814, 48.571252 ] } },
{ "type": "Feature", "properties": { "code": "5015812A", "description": "", "id": "FR:50165:ZE:1075812:ATOUMOD040", "name": "DONVILLE-LES-BAINS - Mairie", "wheelchair_boarding": "unknown" }, "geometry": { "type": "Point", "coordinates": [ -1.579984, 48.847037 ] } },
{ "type": "Feature", "properties": { "code": "5015157B", "description": "", "id": "FR:50391:ZE:1178315:ATOUMOD040", "name": "GRANDPARIGNY - PARIGNY_Mairie", "wheelchair_boarding": "unknown" }, "geometry": { "type": "Point", "coordinates": [ -1.082686, 48.593437 ] } },
{ "type": "Feature", "properties": { "code": "5015976A", "description": "", "id": "FR:50117:ZE:1075946:ATOUMOD040", "name": "CHAMPEAUX - Marquis de Tombelaine", "wheelchair_boarding": "unknown" }, "geometry": { "type": "Point", "coordinates": [ -1.532992, 48.73431 ] } },
{ "type": "Feature", "properties": { "code": "5015996A", "description": "", "id": "FR:50612:ZE:1075958:ATOUMOD040", "name": "VAINS - Mairie", "wheelchair_boarding": "unknown" }, "geometry": { "type": "Point", "coordinates": [ -1.411986, 48.681554 ] } },
{ "type": "Feature", "properties": { "code": "5015159A", "description": "", "id": "FR:50391:ZE:1075466:ATOUMOD040", "name": "GRANDPARIGNY - PARIGNY_Le Pointon", "wheelchair_boarding": "unknown" }, "geometry": { "type": "Point", "coordinates": [ -1.0562271, 48.6023911 ] } },
{ "type": "Feature", "properties": { "code": "5012179A", "description": "", "id": "FR:50256:ZE:1074162:ATOUMOD040", "name": "ISIGNY-LE-BUAT - LE MESNIL-THEBAULT_Carrefour des Biards", "wheelchair_boarding": "unknown" }, "geometry": { "type": "Point", "coordinates": [ -1.180066, 48.595675 ] } },
{ "type": "Feature", "properties": { "code": "5016200A", "description": "", "id": "FR:50639:ZE:1076016:ATOUMOD040", "name": "VILLEDIEU-LES-POELES-ROUFFIGNY - VILLEDIEU-LES-POELES_Plc ces Costils", "wheelchair_boarding": "unknown" }, "geometry": { "type": "Point", "coordinates": [ -1.220208, 48.836815 ] } },
{ "type": "Feature", "properties": { "code": "5016206A", "description": "", "id": "FR:50025:ZE:1076022:ATOUMOD040", "name": "AVRANCHES - ST-MARTIN-DES-CHAMPS_Parc de la Baie", "wheelchair_boarding": "unknown" }, "geometry": { "type": "Point", "coordinates": [ -1.352901, 48.654577 ] } },
{ "type": "Feature", "properties": { "code": "5015199A", "description": "", "id": "FR:50025:ZE:1075504:ATOUMOD040", "name": "AVRANCHES - AVRANCHES_Hôpital", "wheelchair_boarding": "unknown" }, "geometry": { "type": "Point", "coordinates": [ -1.351175, 48.692466 ] } },
{ "type": "Feature", "properties": { "code": "5013751A", "description": "", "id": "FR:50409:ZE:1075100:ATOUMOD040", "name": "PONT-HEBERT - PONT-HEBERT_Mairie", "wheelchair_boarding": "unknown" }, "geometry": { "type": "Point", "coordinates": [ -1.135169, 49.168929 ] } },
{ "type": "Feature", "properties": { "code": "5016688B", "description": "", "id": "FR:50199:ZE:1178313:ATOUMOD040", "name": "GENETS - Auberge de Jeunesse", "wheelchair_boarding": "unknown" }, "geometry": { "type": "Point", "coordinates": [ -1.479859, 48.686567 ] } },
{ "type": "Feature", "properties": { "code": "5015095A", "description": "", "id": "FR:50025:ZE:1075418:ATOUMOD040", "name": "AVRANCHES - AVRANCHES_Plc Littré", "wheelchair_boarding": "unknown" }, "geometry": { "type": "Point", "coordinates": [ -1.362866, 48.686658 ] } },
{ "type": "Feature", "properties": { "code": "5010008A", "description": "", "id": "FR:50025:ZE:1072950:ATOUMOD040", "name": "AVRANCHES - AVRANCHES_Lycée Littré - Desserte Etab.", "wheelchair_boarding": "unknown" }, "geometry": { "type": "Point", "coordinates": [ -1.3599819, 48.6777356 ] } },
{ "type": "Feature", "properties": { "code": "5015618A", "description": "", "id": "FR:50535:ZE:1075742:ATOUMOD040", "name": "LE PARC - STE-PIENCE_Château du Parc", "wheelchair_boarding": "unknown" }, "geometry": { "type": "Point", "coordinates": [ -1.291475, 48.759327 ] } },
{ "type": "Feature", "properties": { "code": "5016219B", "description": "", "id": "FR:50532:ZE:1178287:ATOUMOD040", "name": "SAINT-PAIR-SUR-MER - ZA du Croissant", "wheelchair_boarding": "unknown" }, "geometry": { "type": "Point", "coordinates": [ -1.546601, 48.81645 ] } },
{ "type": "Feature", "properties": { "code": "5015773A", "description": "", "id": "FR:50394:ZE:1075792:ATOUMOD040", "name": "PERIERS - Marché couvert", "wheelchair_boarding": "unknown" }, "geometry": { "type": "Point", "coordinates": [ -1.408401, 49.185262 ] } },
{ "type": "Feature", "properties": { "code": "5015268A", "description": "", "id": "FR:50615:ZE:1075548:ATOUMOD040", "name": "VALOGNES - Gare SNCF", "wheelchair_boarding": "unknown" }, "geometry": { "type": "Point", "coordinates": [ -1.479836, 49.505518 ] } },
{ "type": "Feature", "properties": { "code": "5015972B", "description": "", "id": "FR:50102:ZE:1178301:ATOUMOD040", "name": "CAROLLES - Salle des fêtes", "wheelchair_boarding": "unknown" }, "geometry": { "type": "Point", "coordinates": [ -1.561664, 48.751092 ] } },
{ "type": "Feature", "properties": { "code": "5015602A", "description": "", "id": "FR:50137:ZE:1075732:ATOUMOD040", "name": "LA COLOMBE - Le Bignon", "wheelchair_boarding": "unknown" }, "geometry": { "type": "Point", "coordinates": [ -1.2009618, 48.8790452 ] } },
{ "type": "Feature", "properties": { "code": "5015201A", "description": "", "id": "FR:50129:ZE:1075508:ATOUMOD040", "name": "CHERBOURG-EN-COTENTIN - CHERBOURG-OCTEVILLE_Schuman-Delaville", "wheelchair_boarding": "unknown" }, "geometry": { "type": "Point", "coordinates": [ -1.622733, 49.635643 ] } },
{ "type": "Feature", "properties": { "code": "5016688A", "description": "", "id": "FR:50199:ZE:1076276:ATOUMOD040", "name": "GENETS - Auberge de Jeunesse", "wheelchair_boarding": "unknown" }, "geometry": { "type": "Point", "coordinates": [ -1.479985, 48.686559 ] } },
{ "type": "Feature", "properties": { "code": "5016219A", "description": "", "id": "FR:50532:ZE:1076036:ATOUMOD040", "name": "SAINT-PAIR-SUR-MER - ZA du Croissant", "wheelchair_boarding": "unknown" }, "geometry": { "type": "Point", "coordinates": [ -1.546057, 48.815885 ] } },
{ "type": "Feature", "properties": { "code": "5015160A", "description": "", "id": "FR:50391:ZE:1075468:ATOUMOD040", "name": "GRANDPARIGNY - PARIGNY_Le Pointon", "wheelchair_boarding": "unknown" }, "geometry": { "type": "Point", "coordinates": [ -1.055312, 48.602571 ] } },
{ "type": "Feature", "properties": { "code": "5015939B", "description": "", "id": "FR:50532:ZE:1178302:ATOUMOD040", "name": "SAINT-PAIR-SUR-MER - La Toque Blanche", "wheelchair_boarding": "unknown" }, "geometry": { "type": "Point", "coordinates": [ -1.565034, 48.793972 ] } },
{ "type": "Feature", "properties": { "code": "5015157A", "description": "", "id": "FR:50391:ZE:1075462:ATOUMOD040", "name": "GRANDPARIGNY - PARIGNY_Mairie", "wheelchair_boarding": "unknown" }, "geometry": { "type": "Point", "coordinates": [ -1.083001, 48.593446 ] } },
{ "type": "Feature", "properties": { "code": "5016866A", "description": "", "id": "FR:50419:ZE:1076376:ATOUMOD040", "name": "QUETTREVILLE-SUR-SIENNE - QUETTREVILLE-SUR-SIENNE_Mairie", "wheelchair_boarding": "unknown" }, "geometry": { "type": "Point", "coordinates": [ -1.468993, 48.968635 ] } },
{ "type": "Feature", "properties": { "code": "5017296A", "description": "", "id": "FR:50488:ZE:1076994:ATOUMOD040", "name": "SAINT-JEAN-DE-DAYE - Mairie", "wheelchair_boarding": "unknown" }, "geometry": { "type": "Point", "coordinates": [ -1.136723, 49.228638 ] } },
{ "type": "Feature", "properties": { "code": "5015773B", "description": "", "id": "FR:50394:ZE:1178294:ATOUMOD040", "name": "PERIERS - Marché couvert", "wheelchair_boarding": "unknown" }, "geometry": { "type": "Point", "coordinates": [ -1.408943, 49.184639 ] } },
{ "type": "Feature", "properties": { "code": "5015818A", "description": "", "id": "FR:50165:ZE:1075818:ATOUMOD040", "name": "DONVILLE-LES-BAINS - Château d'eau", "wheelchair_boarding": "unknown" }, "geometry": { "type": "Point", "coordinates": [ -1.565868, 48.853602 ] } },
{ "type": "Feature", "properties": { "code": "5012451A", "description": "", "id": "FR:50639:ZE:1074282:ATOUMOD040", "name": "VILLEDIEU-LES-POELES-ROUFFIGNY - VILLEDIEU-LES-POELES_Saultchevreuil", "wheelchair_boarding": "unknown" }, "geometry": { "type": "Point", "coordinates": [ -1.234004, 48.827815 ] } },
{ "type": "Feature", "properties": { "code": "5015155A", "description": "", "id": "FR:50274:ZE:1075460:ATOUMOD040", "name": "SAINT-HILAIRE-DU-HARCOUET - ST-HILAIRE-DU-HARCOUET_Agri'Pôle", "wheelchair_boarding": "unknown" }, "geometry": { "type": "Point", "coordinates": [ -1.095275, 48.563473 ] } },
{ "type": "Feature", "properties": { "code": "5015476A", "description": "", "id": "FR:50042:ZE:1075650:ATOUMOD040", "name": "BEAUVOIR - PARKING NAVETTES LE MONT-BEAUVOIR", "wheelchair_boarding": "unknown" }, "geometry": { "type": "Point", "coordinates": [ -1.509497, 48.612031 ] } },
{ "type": "Feature", "properties": { "code": "5015968A", "description": "", "id": "FR:50066:ZE:1075938:ATOUMOD040", "name": "JULLOUVILLE - Edenville", "wheelchair_boarding": "unknown" }, "geometry": { "type": "Point", "coordinates": [ -1.568769, 48.762582 ] } },
{ "type": "Feature", "properties": { "code": "5015520A", "description": "", "id": "FR:50218:ZE:1075684:ATOUMOD040", "name": "GRANVILLE - Gare SNCF", "wheelchair_boarding": "unknown" }, "geometry": { "type": "Point", "coordinates": [ -1.587964, 48.83829 ] } },
{ "type": "Feature", "properties": { "code": "5016004B", "description": "", "id": "FR:50288:ZE:1178311:ATOUMOD040", "name": "MARCEY-LES-GREVES - Pont-Gilbert", "wheelchair_boarding": "unknown" }, "geometry": { "type": "Point", "coordinates": [ -1.37435, 48.693306 ] } },
{ "type": "Feature", "properties": { "code": "5016856A", "description": "", "id": "FR:50502:ZE:1076366:ATOUMOD040", "name": "SAINT-LO - Hôpital", "wheelchair_boarding": "unknown" }, "geometry": { "type": "Point", "coordinates": [ -1.108269, 49.107079 ] } },
{ "type": "Feature", "properties": { "code": "5015968B", "description": "", "id": "FR:50066:ZE:1178273:ATOUMOD040", "name": "JULLOUVILLE - Edenville", "wheelchair_boarding": "unknown" }, "geometry": { "type": "Point", "coordinates": [ -1.5687758, 48.7630648 ] } },
{ "type": "Feature", "properties": { "code": "5015037A", "description": "", "id": "FR:50099:ZE:1075388:ATOUMOD040", "name": "CARENTAN-LES-MARAIS - CARENTAN_Gare SNCF", "wheelchair_boarding": "unknown" }, "geometry": { "type": "Point", "coordinates": [ -1.2458955, 49.3027942 ] } },
{ "type": "Feature", "properties": { "code": "5015604A", "description": "", "id": "FR:50637:ZE:1075736:ATOUMOD040", "name": "VILLEBAUDON - Le Bourg", "wheelchair_boarding": "unknown" }, "geometry": { "type": "Point", "coordinates": [ -1.166439, 48.959497 ] } },
{ "type": "Feature", "properties": { "code": "5015976B", "description": "", "id": "FR:50117:ZE:1178304:ATOUMOD040", "name": "CHAMPEAUX - Marquis de Tombelaine", "wheelchair_boarding": "unknown" }, "geometry": { "type": "Point", "coordinates": [ -1.53257, 48.734305 ] } },
{ "type": "Feature", "properties": { "code": "5015041A", "description": "", "id": "FR:50099:ZE:1075392:ATOUMOD040", "name": "CARENTAN-LES-MARAIS - MONTMARTIN-EN-GRAIGNES_Le Rata", "wheelchair_boarding": "unknown" }, "geometry": { "type": "Point", "coordinates": [ -1.1609352, 49.2718222 ] } },
{ "type": "Feature", "properties": { "code": "5015027B", "description": "", "id": "FR:50341:ZE:1158288:ATOUMOD040", "name": "MONTEBOURG - Plc Albert Pellerin", "wheelchair_boarding": "unknown" }, "geometry": { "type": "Point", "coordinates": [ -1.3808414, 49.4874908 ] } },
{ "type": "Feature", "properties": { "code": "5015979B", "description": "", "id": "FR:50496:ZE:1178308:ATOUMOD040", "name": "SAINT-JEAN-LE-THOMAS - Jardin public", "wheelchair_boarding": "unknown" }, "geometry": { "type": "Point", "coordinates": [ -1.518347, 48.729895 ] } },
{ "type": "Feature", "properties": { "code": "5015818B", "description": "", "id": "FR:50165:ZE:1178305:ATOUMOD040", "name": "DONVILLE-LES-BAINS - Château d'Eau", "wheelchair_boarding": "unknown" }, "geometry": { "type": "Point", "coordinates": [ -1.566028, 48.853637 ] } },
{ "type": "Feature", "properties": { "code": "5015776A", "description": "", "id": "FR:50076:ZE:1075794:ATOUMOD040", "name": "BREHAL - Ancienne gare", "wheelchair_boarding": "unknown" }, "geometry": { "type": "Point", "coordinates": [ -1.511656, 48.897376 ] } },
{ "type": "Feature", "properties": { "code": "5015529B", "description": "", "id": "FR:50540:ZE:1178282:ATOUMOD040", "name": "SAINT-PIERRE-LANGERS - La Havaudière", "wheelchair_boarding": "unknown" }, "geometry": { "type": "Point", "coordinates": [ -1.50941, 48.790044 ] } },
{ "type": "Feature", "properties": { "code": "5015939A", "description": "", "id": "FR:50532:ZE:1075906:ATOUMOD040", "name": "SAINT-PAIR-SUR-MER - La Toque Blanche", "wheelchair_boarding": "unknown" }, "geometry": { "type": "Point", "coordinates": [ -1.565163, 48.793913 ] } },
{ "type": "Feature", "properties": { "code": "7813264A", "description": "", "id": "FR:50129:ZE:1178486:ATOUMOD040", "name": "CHERBOURG-EN-COTENTIN - CHERBOURG-OCTEVILLE_Gare", "wheelchair_boarding": "unknown" }, "geometry": { "type": "Point", "coordinates": [ -1.621704, 49.634011 ] } },
{ "type": "Feature", "properties": { "code": "5015111A", "description": "", "id": "FR:50168:ZE:1075432:ATOUMOD040", "name": "DUCEY-LES CHERIS - DUCEY_Plat d'Etain", "wheelchair_boarding": "unknown" }, "geometry": { "type": "Point", "coordinates": [ -1.291028, 48.620829 ] } },
{ "type": "Feature", "properties": { "code": "5015137B", "description": "", "id": "FR:50147:ZE:1178299:ATOUMOD040", "name": "COUTANCES - Place Wood", "wheelchair_boarding": "unknown" }, "geometry": { "type": "Point", "coordinates": [ -1.444863, 49.051348 ] } },
{ "type": "Feature", "properties": { "code": "7813264B", "description": "", "id": "FR:50129:ZE:1178485:ATOUMOD040", "name": "CHERBOURG-EN-COTENTIN - CHERBOURG-OCTEVILLE_Gare", "wheelchair_boarding": "unknown" }, "geometry": { "type": "Point", "coordinates": [ -1.621461, 49.633709 ] } },
{ "type": "Feature", "properties": { "code": "5015495A", "description": "", "id": "FR:50408:ZE:1075672:ATOUMOD040", "name": "PONTAUBAULT - Mairie", "wheelchair_boarding": "unknown" }, "geometry": { "type": "Point", "coordinates": [ -1.350779, 48.628956 ] } },
{ "type": "Feature", "properties": { "code": "5015614A", "description": "", "id": "FR:50502:ZE:1075740:ATOUMOD040", "name": "SAINT-LO - Maison du Département- Desserte Etablissements", "wheelchair_boarding": "unknown" }, "geometry": { "type": "Point", "coordinates": [ -1.11628, 49.100137 ] } },
{ "type": "Feature", "properties": { "code": "5015529A", "description": "", "id": "FR:50540:ZE:1075692:ATOUMOD040", "name": "SAINT-PIERRE-LANGERS - La Havaudière", "wheelchair_boarding": "unknown" }, "geometry": { "type": "Point", "coordinates": [ -1.509691, 48.790058 ] } },
{ "type": "Feature", "properties": { "code": "5016209A", "description": "", "id": "FR:50436:ZE:1076028:ATOUMOD040", "name": "ROMAGNY FONTENAY - ROMAGNY_ZA Teractive", "wheelchair_boarding": "unknown" }, "geometry": { "type": "Point", "coordinates": [ -0.958396, 48.634926 ] } },
{ "type": "Feature", "properties": { "code": "5016194A", "description": "", "id": "FR:50267:ZE:1076010:ATOUMOD040", "name": "LESSAY - LESSAY_Rond-point de la Lande", "wheelchair_boarding": "unknown" }, "geometry": { "type": "Point", "coordinates": [ -1.529022, 49.212833 ] } },
{ "type": "Feature", "properties": { "code": "5016206B", "description": "", "id": "FR:50025:ZE:1178286:ATOUMOD040", "name": "AVRANCHES - ST-MARTIN-DES-CHAMPS_Parc de la Baie", "wheelchair_boarding": "unknown" }, "geometry": { "type": "Point", "coordinates": [ -1.35308, 48.654364 ] } },
{ "type": "Feature", "properties": { "code": "5015522A", "description": "", "id": "FR:50218:ZE:1075686:ATOUMOD040", "name": "GRANVILLE - Maison de Repos", "wheelchair_boarding": "unknown" }, "geometry": { "type": "Point", "coordinates": [ -1.570071, 48.831128 ] } },
{ "type": "Feature", "properties": { "code": "5015025A", "description": "", "id": "FR:50615:ZE:1075376:ATOUMOD040", "name": "VALOGNES - Hôpital", "wheelchair_boarding": "unknown" }, "geometry": { "type": "Point", "coordinates": [ -1.46419, 49.503539 ] } },
{ "type": "Feature", "properties": { "code": "5015031B", "description": "", "id": "FR:50523:ZE:1158287:ATOUMOD040", "name": "SAINTE-MERE-EGLISE - STE-MERE-EGLISE_Marché couvert", "wheelchair_boarding": "unknown" }, "geometry": { "type": "Point", "coordinates": [ -1.3138546, 49.4090776 ] } },
{ "type": "Feature", "properties": { "code": "5015031A", "description": "", "id": "FR:50523:ZE:1075384:ATOUMOD040", "name": "SAINTE-MERE-EGLISE - STE-MERE-EGLISE_Marché couvert", "wheelchair_boarding": "unknown" }, "geometry": { "type": "Point", "coordinates": [ -1.3144112, 49.4092678 ] } },
{ "type": "Feature", "properties": { "code": "5015128A", "description": "", "id": "FR:50292:ZE:1075442:ATOUMOD040", "name": "MARIGNY-LE-LOZON - MARIGNY_Maison de retraite", "wheelchair_boarding": "unknown" }, "geometry": { "type": "Point", "coordinates": [ -1.240626, 49.098734 ] } },
{ "type": "Feature", "properties": { "code": "5015126A", "description": "", "id": "FR:50483:ZE:1075438:ATOUMOD040", "name": "SAINT-GILLES - Église", "wheelchair_boarding": "unknown" }, "geometry": { "type": "Point", "coordinates": [ -1.174666, 49.104722 ] } },
{ "type": "Feature", "properties": { "code": "5016209B", "description": "", "id": "FR:50436:ZE:1178309:ATOUMOD040", "name": "ROMAGNY FONTENAY - ROMAGNY_ZA Teractive", "wheelchair_boarding": "unknown" }, "geometry": { "type": "Point", "coordinates": [ -0.958411, 48.635116 ] } },
{ "type": "Feature", "properties": { "code": "5015023A", "description": "", "id": "FR:50615:ZE:1075372:ATOUMOD040", "name": "VALOGNES - Plc Felix Buhot - Desserte Etablissements", "wheelchair_boarding": "unknown" }, "geometry": { "type": "Point", "coordinates": [ -1.477177, 49.510843 ] } },
{ "type": "Feature", "properties": { "code": "5015936B", "description": "", "id": "FR:50532:ZE:1178307:ATOUMOD040", "name": "SAINT-PAIR-SUR-MER - Beausoleil", "wheelchair_boarding": "unknown" }, "geometry": { "type": "Point", "coordinates": [ -1.567759, 48.803922 ] } },
{ "type": "Feature", "properties": { "code": "5016865A", "description": "", "id": "FR:50076:ZE:1076374:ATOUMOD040", "name": "BREHAL - Ancienne gare", "wheelchair_boarding": "unknown" }, "geometry": { "type": "Point", "coordinates": [ -1.51183, 48.897419 ] } },
{ "type": "Feature", "properties": { "code": "5015197B", "description": "", "id": "FR:50025:ZE:1178284:ATOUMOD040", "name": "AVRANCHES - AVRANCHES_Jardin des Plantes", "wheelchair_boarding": "unknown" }, "geometry": { "type": "Point", "coordinates": [ -1.363907, 48.684398 ] } }
]
}
